{
"type": "FeatureCollection",
"crs": { "type": "name", "properties": { "name": "urn:ogc:def:crs:OGC:1.3:CRS84" } },
"features": [
{ "type": "Feature", "properties": { "osmid": 358679583, "name": "Archbishop R Ryan Memorial School" }, "geometry": { "type": "Point", "coordinates": [ -84.3716306, 33.7550283 ] } },
{ "type": "Feature", "properties": { "osmid": 358682163, "name": "Capitol View Elementary School" }, "geometry": { "type": "Point", "coordinates": [ -84.4068716, 33.7156631 ] } },
{ "type": "Feature", "properties": { "osmid": 358682296, "name": "KIPP West Atlanta Young Scholars Academy" }, "geometry": { "type": "Point", "coordinates": [ -84.417428, 33.7570509 ] } },
{ "type": "Feature", "properties": { "osmid": 358682299, "name": "Carter School" }, "geometry": { "type": "Point", "coordinates": [ -84.3560369, 33.8470483 ] } },
{ "type": "Feature", "properties": { "osmid": 358682323, "name": "Carver Vocational School" }, "geometry": { "type": "Point", "coordinates": [ -84.3889905, 33.718513 ] } },
{ "type": "Feature", "properties": { "osmid": 358682907, "name": "Clark College" }, "geometry": { "type": "Point", "coordinates": [ -84.4119502, 33.7483398 ] } },
{ "type": "Feature", "properties": { "osmid": 358682979, "name": "Clement School" }, "geometry": { "type": "Point", "coordinates": [ -84.4377066, 33.7603843 ] } },
{ "type": "Feature", "properties": { "osmid": 358682996, "name": "Cleveland Avenue Elementary School" }, "geometry": { "type": "Point", "coordinates": [ -84.3913153, 33.6814972 ] } },
{ "type": "Feature", "properties": { "osmid": 358683325, "name": "Connally Elementary School" }, "geometry": { "type": "Point", "coordinates": [ -84.4407007, 33.7320467 ] } },
{ "type": "Feature", "properties": { "osmid": 358683687, "name": "Grove Park Elementary School" }, "geometry": { "type": "Point", "coordinates": [ -84.4438452, 33.7718979 ] } },
{ "type": "Feature", "properties": { "osmid": 358683760, "name": "Walter Leonard Parks Middle School" }, "geometry": { "type": "Point", "coordinates": [ -84.396434, 33.7250386 ] } },
{ "type": "Feature", "properties": { "osmid": 358685099, "name": "Emory University School of Dentistry" }, "geometry": { "type": "Point", "coordinates": [ -84.3821488, 33.7637172 ] } },
{ "type": "Feature", "properties": { "osmid": 358685236, "name": "Margaret Fain Elementary School" }, "geometry": { "type": "Point", "coordinates": [ -84.4977088, 33.7562181 ] } },
{ "type": "Feature", "properties": { "osmid": 358685855, "name": "Fulton High School" }, "geometry": { "type": "Point", "coordinates": [ -84.372148, 33.6987188 ] } },
{ "type": "Feature", "properties": { "osmid": 358685913, "name": "Gammon Theological Seminary" }, "geometry": { "type": "Point", "coordinates": [ -84.4083254, 33.7521879 ] } },
{ "type": "Feature", "properties": { "osmid": 358685974, "name": "Georgia Avenue School" }, "geometry": { "type": "Point", "coordinates": [ -84.3960381, 33.7367736 ] } },
{ "type": "Feature", "properties": { "osmid": 358687355, "name": "Alonzo F Herndon Elementary School" }, "geometry": { "type": "Point", "coordinates": [ -84.4207614, 33.763162 ] } },
{ "type": "Feature", "properties": { "osmid": 358687444, "name": "Highland School" }, "geometry": { "type": "Point", "coordinates": [ -84.3552034, 33.7712168 ] } },
{ "type": "Feature", "properties": { "osmid": 358688236, "name": "Howard Middle School" }, "geometry": { "type": "Point", "coordinates": [ -84.3690647, 33.7580793 ] } },
{ "type": "Feature", "properties": { "osmid": 358688354, "name": "Joseph Humphries Elementary School" }, "geometry": { "type": "Point", "coordinates": [ -84.3763147, 33.6717752 ] } },
{ "type": "Feature", "properties": { "osmid": 358688618, "name": "J C Harris School" }, "geometry": { "type": "Point", "coordinates": [ -84.4332618, 33.7420514 ] } },
{ "type": "Feature", "properties": { "osmid": 358689152, "name": "Jones School" }, "geometry": { "type": "Point", "coordinates": [ -84.3663147, 33.7289958 ] } },
{ "type": "Feature", "properties": { "osmid": 358689439, "name": "Key School" }, "geometry": { "type": "Point", "coordinates": [ -84.38826, 33.7326069 ] } },
{ "type": "Feature", "properties": { "osmid": 358690107, "name": "Lee Street School" }, "geometry": { "type": "Point", "coordinates": [ -84.4134401, 33.7391801 ] } },
{ "type": "Feature", "properties": { "osmid": 358690861, "name": "Luckie Street School" }, "geometry": { "type": "Point", "coordinates": [ -84.3949271, 33.7667728 ] } },
{ "type": "Feature", "properties": { "osmid": 358691414, "name": "Margaret Mitchell School" }, "geometry": { "type": "Point", "coordinates": [ -84.4335398, 33.8320491 ] } },
{ "type": "Feature", "properties": { "osmid": 358692589, "name": "Milton Avenue School" }, "geometry": { "type": "Point", "coordinates": [ -84.3810374, 33.7209405 ] } },
{ "type": "Feature", "properties": { "osmid": 358692973, "name": "Morningside Elementary School" }, "geometry": { "type": "Point", "coordinates": [ -84.3529812, 33.7970495 ] } },
{ "type": "Feature", "properties": { "osmid": 358694329, "name": "Mount Vernon School" }, "geometry": { "type": "Point", "coordinates": [ -84.4404845, 33.8023277 ] } },
{ "type": "Feature", "properties": { "osmid": 358697898, "name": "Rusk Elementary School" }, "geometry": { "type": "Point", "coordinates": [ -84.4195146, 33.7389997 ] } },
{ "type": "Feature", "properties": { "osmid": 358699905, "name": "Luther Judson Price Middle School" }, "geometry": { "type": "Point", "coordinates": [ -84.3874265, 33.7092742 ] } },
{ "type": "Feature", "properties": { "osmid": 358700118, "name": "Pryor Street School" }, "geometry": { "type": "Point", "coordinates": [ -84.394145, 33.7306882 ] } },
{ "type": "Feature", "properties": { "osmid": 358700183, "name": "R L Hope School" }, "geometry": { "type": "Point", "coordinates": [ -84.3715931, 33.8456596 ] } },
{ "type": "Feature", "properties": { "osmid": 358700230, "name": "Ragsdale School" }, "geometry": { "type": "Point", "coordinates": [ -84.4242387, 33.7217993 ] } },
{ "type": "Feature", "properties": { "osmid": 358701166, "name": "Rock Springs School" }, "geometry": { "type": "Point", "coordinates": [ -84.3615926, 33.8201046 ] } },
{ "type": "Feature", "properties": { "osmid": 358702776, "name": "Samuel Martin Inman Middle School" }, "geometry": { "type": "Point", "coordinates": [ -84.3627408, 33.7824283 ] } },
{ "type": "Feature", "properties": { "osmid": 358703152, "name": "William J Scott Elementary School" }, "geometry": { "type": "Point", "coordinates": [ -84.4696523, 33.8023278 ] } },
{ "type": "Feature", "properties": { "osmid": 358704092, "name": "Thomas Heathe Slater Elementary School" }, "geometry": { "type": "Point", "coordinates": [ -84.391873, 33.7183723 ] } },
{ "type": "Feature", "properties": { "osmid": 358704291, "name": "Sarah Rawson Smith Elementary School" }, "geometry": { "type": "Point", "coordinates": [ -84.3754822, 33.8581593 ] } },
{ "type": "Feature", "properties": { "osmid": 358704302, "name": "Smith-Hughes Vocational School" }, "geometry": { "type": "Point", "coordinates": [ -84.3926421, 33.7482329 ] } },
{ "type": "Feature", "properties": { "osmid": 358704463, "name": "Campbell Elementary School" }, "geometry": { "type": "Point", "coordinates": [ -84.3885506, 33.7150055 ] } },
{ "type": "Feature", "properties": { "osmid": 358704610, "name": "Jean Childs Young Middle School" }, "geometry": { "type": "Point", "coordinates": [ -84.4893749, 33.7328854 ] } },
{ "type": "Feature", "properties": { "osmid": 358704979, "name": "F L Stanton Elementary School" }, "geometry": { "type": "Point", "coordinates": [ -84.4421511, 33.75344 ] } },
{ "type": "Feature", "properties": { "osmid": 358705669, "name": "Sylvan Hills Middle School" }, "geometry": { "type": "Point", "coordinates": [ -84.4179832, 33.7151076 ] } },
{ "type": "Feature", "properties": { "osmid": 358705952, "name": "Tenth Street School" }, "geometry": { "type": "Point", "coordinates": [ -84.3800781, 33.7804808 ] } },
{ "type": "Feature", "properties": { "osmid": 358706105, "name": "Thomas Oliver School" }, "geometry": { "type": "Point", "coordinates": [ -84.5363201, 33.7012196 ] } },
{ "type": "Feature", "properties": { "osmid": 358707388, "name": "University School" }, "geometry": { "type": "Point", "coordinates": [ -84.3835378, 33.7853834 ] } },
{ "type": "Feature", "properties": { "osmid": 358707510, "name": "Venetian Hills Elementary School" }, "geometry": { "type": "Point", "coordinates": [ -84.449651, 33.7142745 ] } },
{ "type": "Feature", "properties": { "osmid": 358707791, "name": "Walker Street School" }, "geometry": { "type": "Point", "coordinates": [ -84.4010384, 33.7501065 ] } },
{ "type": "Feature", "properties": { "osmid": 358708484, "name": "Benjamin S Carson Honors Preparatory School" }, "geometry": { "type": "Point", "coordinates": [ -84.4490504, 33.7744032 ] } },
{ "type": "Feature", "properties": { "osmid": 358708534, "name": "Atlanta Charter Middle School" }, "geometry": { "type": "Point", "coordinates": [ -84.3549254, 33.7326067 ] } },
{ "type": "Feature", "properties": { "osmid": 358708620, "name": "Westminster School" }, "geometry": { "type": "Point", "coordinates": [ -84.4318731, 33.8426044 ] } },
{ "type": "Feature", "properties": { "osmid": 358710363, "name": "Burgess-Peterson Academy" }, "geometry": { "type": "Point", "coordinates": [ -84.3315914, 33.7406619 ] } },
{ "type": "Feature", "properties": { "osmid": 358710581, "name": "Mary Lin Elementary School" }, "geometry": { "type": "Point", "coordinates": [ -84.3393694, 33.7698279 ] } },
{ "type": "Feature", "properties": { "osmid": 358710658, "name": "Crim Open Campus High School" }, "geometry": { "type": "Point", "coordinates": [ -84.3313135, 33.7462173 ] } },
{ "type": "Feature", "properties": { "osmid": 358710910, "name": "Whitefoord Elementary School" }, "geometry": { "type": "Point", "coordinates": [ -84.3418695, 33.7528839 ] } },
{ "type": "Feature", "properties": { "osmid": 358713847, "name": "Perkerson Elementary School" }, "geometry": { "type": "Point", "coordinates": [ -84.4133014, 33.6981467 ] } },
{ "type": "Feature", "properties": { "osmid": 358720227, "name": "Carter G Woodson Elementary School" }, "geometry": { "type": "Point", "coordinates": [ -84.4394102, 33.7730307 ] } },
{ "type": "Feature", "properties": { "osmid": 358720302, "name": "Center Hill School" }, "geometry": { "type": "Point", "coordinates": [ -84.4649298, 33.7773285 ] } },
{ "type": "Feature", "properties": { "osmid": 358762126, "name": "Carver High School" }, "geometry": { "type": "Point", "coordinates": [ -84.3898759, 33.7182045 ] } },
{ "type": "Feature", "properties": { "osmid": 358762817, "name": "Trinity School" }, "geometry": { "type": "Point", "coordinates": [ -84.4238173, 33.8428821 ] } },
{ "type": "Feature", "properties": { "osmid": 358768588, "name": "Morris Brandon Elementary School" }, "geometry": { "type": "Point", "coordinates": [ -84.4154836, 33.8298268 ] } },
{ "type": "Feature", "properties": { "osmid": 358769927, "name": "E Rivers Elementary School" }, "geometry": { "type": "Point", "coordinates": [ -84.389927, 33.8195491 ] } },
{ "type": "Feature", "properties": { "osmid": 358779758, "name": "Charles R Drew Charter School" }, "geometry": { "type": "Point", "coordinates": [ -84.3146462, 33.7451061 ] } },
{ "type": "Feature", "properties": { "osmid": 358779811, "name": "East Atlanta Middle School" }, "geometry": { "type": "Point", "coordinates": [ -84.3296466, 33.7237179 ] } },
{ "type": "Feature", "properties": { "osmid": 358781474, "name": "Adamsville Elementary School" }, "geometry": { "type": "Point", "coordinates": [ -84.5138203, 33.7548293 ] } },
{ "type": "Feature", "properties": { "osmid": 358781519, "name": "Brewer Elementary School" }, "geometry": { "type": "Point", "coordinates": [ -84.3977045, 33.6901081 ] } },
{ "type": "Feature", "properties": { "osmid": 358781556, "name": "Crawford Williamson Long Middle School" }, "geometry": { "type": "Point", "coordinates": [ -84.3946485, 33.6667754 ] } },
{ "type": "Feature", "properties": { "osmid": 358781617, "name": "Kimberly Elementary School" }, "geometry": { "type": "Point", "coordinates": [ -84.4899301, 33.7020528 ] } },
{ "type": "Feature", "properties": { "osmid": 358781637, "name": "Lenora P Miles Elementary School" }, "geometry": { "type": "Point", "coordinates": [ -84.5254872, 33.7559404 ] } },
{ "type": "Feature", "properties": { "osmid": 358781640, "name": "Heritage Academy Elementary School" }, "geometry": { "type": "Point", "coordinates": [ -84.375759, 33.6628865 ] } },
{ "type": "Feature", "properties": { "osmid": 358781745, "name": "Thorrell High School" }, "geometry": { "type": "Point", "coordinates": [ -84.4890967, 33.6989974 ] } },
{ "type": "Feature", "properties": { "osmid": 358781749, "name": "George A Towns Elementary School" }, "geometry": { "type": "Point", "coordinates": [ -84.5046535, 33.7759398 ] } },
{ "type": "Feature", "properties": { "osmid": 358781786, "name": "Ben Hill Elementary School" }, "geometry": { "type": "Point", "coordinates": [ -84.5146528, 33.6901088 ] } },
{ "type": "Feature", "properties": { "osmid": 358781823, "name": "Fickett Elementary School" }, "geometry": { "type": "Point", "coordinates": [ -84.5165974, 33.6973308 ] } },
{ "type": "Feature", "properties": { "osmid": 358781839, "name": "Mays High School" }, "geometry": { "type": "Point", "coordinates": [ -84.5035421, 33.733441 ] } },
{ "type": "Feature", "properties": { "osmid": 358781847, "name": "Ralph Bunche Middle School" }, "geometry": { "type": "Point", "coordinates": [ -84.5307644, 33.7012196 ] } },
{ "type": "Feature", "properties": { "osmid": 358781864, "name": "Thomasville Heights Elementary School" }, "geometry": { "type": "Point", "coordinates": [ -84.3552031, 33.7039964 ] } },
{ "type": "Feature", "properties": { "osmid": 358781867, "name": "Tull Waters Elementary School" }, "geometry": { "type": "Point", "coordinates": [ -84.36687, 33.6889969 ] } },
{ "type": "Feature", "properties": { "osmid": 358781881, "name": "West Atlanta Elementary School" }, "geometry": { "type": "Point", "coordinates": [ -84.519931, 33.7145526 ] } },
{ "type": "Feature", "properties": { "osmid": 358782061, "name": "University Community Academy" }, "geometry": { "type": "Point", "coordinates": [ -84.4543738, 33.7592734 ] } },
{ "type": "Feature", "properties": { "osmid": 358782064, "name": "Archer High School" }, "geometry": { "type": "Point", "coordinates": [ -84.4615965, 33.8048277 ] } },
{ "type": "Feature", "properties": { "osmid": 358782104, "name": "Frederick Douglass High School" }, "geometry": { "type": "Point", "coordinates": [ -84.4677077, 33.76094 ] } },
{ "type": "Feature", "properties": { "osmid": 358782117, "name": "Charles Lincoln Harper-Samuel Howard Archer Middle School" }, "geometry": { "type": "Point", "coordinates": [ -84.49882, 33.7695511 ] } },
{ "type": "Feature", "properties": { "osmid": 358782120, "name": "Harwell Road Elementary School" }, "geometry": { "type": "Point", "coordinates": [ -84.4940976, 33.7726066 ] } },
{ "type": "Feature", "properties": { "osmid": 358782178, "name": "Arkwright Elementary School" }, "geometry": { "type": "Point", "coordinates": [ -84.4391647, 33.7207881 ] } },
{ "type": "Feature", "properties": { "osmid": 358782184, "name": "Beecher Hills Elementary School" }, "geometry": { "type": "Point", "coordinates": [ -84.4632628, 33.7356629 ] } },
{ "type": "Feature", "properties": { "osmid": 358782226, "name": "The Barack & Michelle Obama Academy" }, "geometry": { "type": "Point", "coordinates": [ -84.3829821, 33.7281626 ] } },
{ "type": "Feature", "properties": { "osmid": 358782291, "name": "Peyton Forest Elementary School" }, "geometry": { "type": "Point", "coordinates": [ -84.4788425, 33.7486603 ] } },
{ "type": "Feature", "properties": { "osmid": 358782303, "name": "Rosalie Wright Elementary School" }, "geometry": { "type": "Point", "coordinates": [ -84.4590962, 33.7459404 ] } },
{ "type": "Feature", "properties": { "osmid": 358782337, "name": "Willis Sutton Middle School" }, "geometry": { "type": "Point", "coordinates": [ -84.3999275, 33.8739923 ] } },
{ "type": "Feature", "properties": { "osmid": 358782351, "name": "Warren T Jackson Elementary School" }, "geometry": { "type": "Point", "coordinates": [ -84.422984, 33.8731592 ] } },
{ "type": "Feature", "properties": { "osmid": 358782361, "name": "West Manor Elementary School" }, "geometry": { "type": "Point", "coordinates": [ -84.4896528, 33.7398296 ] } },
{ "type": "Feature", "properties": { "osmid": 358782526, "name": "Fred A Toomer Elementary School" }, "geometry": { "type": "Point", "coordinates": [ -84.3285357, 33.7551059 ] } },
{ "type": "Feature", "properties": { "osmid": 358782531, "name": "Kirkwood Elementary School" }, "geometry": { "type": "Point", "coordinates": [ -84.3224243, 33.756217 ] } },
{ "type": "Feature", "properties": { "osmid": 358782759, "name": "Alfred Blalock Elementary School" }, "geometry": { "type": "Point", "coordinates": [ -84.4990979, 33.7939949 ] } },
{ "type": "Feature", "properties": { "osmid": 358782763, "name": "C W Hill Elementary School" }, "geometry": { "type": "Point", "coordinates": [ -84.3743707, 33.7678837 ] } },
{ "type": "Feature", "properties": { "osmid": 358782765, "name": "Rusk Elementary School_358782765" }, "geometry": { "type": "Point", "coordinates": [ -84.4215947, 33.7431625 ] } },
{ "type": "Feature", "properties": { "osmid": 358782768, "name": "M Agnes Jones Elementary School" }, "geometry": { "type": "Point", "coordinates": [ -84.4227059, 33.7487178 ] } },
{ "type": "Feature", "properties": { "osmid": 358782892, "name": "Atlanta Street Academy" }, "geometry": { "type": "Point", "coordinates": [ -84.4318728, 33.7392737 ] } },
{ "type": "Feature", "properties": { "osmid": 358783048, "name": "McClendons School of Dance" }, "geometry": { "type": "Point", "coordinates": [ -84.4202057, 33.737607 ] } },
{ "type": "Feature", "properties": { "osmid": 358783105, "name": "Saint Anthonys School" }, "geometry": { "type": "Point", "coordinates": [ -84.4193723, 33.7381626 ] } },
{ "type": "Feature", "properties": { "osmid": 358783743, "name": "Interdenominational Theological Center" }, "geometry": { "type": "Point", "coordinates": [ -84.4087802, 33.7522398 ] } },
{ "type": "Feature", "properties": { "osmid": 358784424, "name": "Daniel McLaughlin Therrell High School" }, "geometry": { "type": "Point", "coordinates": [ -84.4894444, 33.6988889 ] } },
{ "type": "Feature", "properties": { "osmid": 358784429, "name": "Basoline E Usher Elementary School" }, "geometry": { "type": "Point", "coordinates": [ -84.4938889, 33.7725 ] } },
{ "type": "Feature", "properties": { "osmid": 358784431, "name": "Centennial Place Elementary School" }, "geometry": { "type": "Point", "coordinates": [ -84.3955556, 33.7697222 ] } },
{ "type": "Feature", "properties": { "osmid": 358784435, "name": "Achieve Academy of Atlanta" }, "geometry": { "type": "Point", "coordinates": [ -84.5216667, 33.7197222 ] } },
{ "type": "Feature", "properties": { "osmid": 358784438, "name": "School for Integrated Academics and Technologies" }, "geometry": { "type": "Point", "coordinates": [ -84.4413889, 33.7608333 ] } },
{ "type": "Feature", "properties": { "osmid": 358784445, "name": "Early College High School at Carver" }, "geometry": { "type": "Point", "coordinates": [ -84.3890493, 33.7190939 ] } },
{ "type": "Feature", "properties": { "osmid": 358784622, "name": "Nsoromma School" }, "geometry": { "type": "Point", "coordinates": [ -84.4636, 33.7226 ] } },
{ "type": "Feature", "properties": { "osmid": 358785164, "name": "Heritage Preparatory School of Georgia" }, "geometry": { "type": "Point", "coordinates": [ -84.3668, 33.8021 ] } },
{ "type": "Feature", "properties": { "osmid": 358785215, "name": "Sophia Academy" }, "geometry": { "type": "Point", "coordinates": [ -84.3493, 33.8597 ] } },
{ "type": "Feature", "properties": { "osmid": 358785234, "name": "Atlanta Girls School" }, "geometry": { "type": "Point", "coordinates": [ -84.4238898, 33.8425694 ] } },
{ "type": "Feature", "properties": { "osmid": 358785236, "name": "Atlanta International School" }, "geometry": { "type": "Point", "coordinates": [ -84.3785, 33.8334 ] } },
{ "type": "Feature", "properties": { "osmid": 358785244, "name": "Atlanta Speech School" }, "geometry": { "type": "Point", "coordinates": [ -84.4225, 33.8414 ] } },
{ "type": "Feature", "properties": { "osmid": 358785247, "name": "Children's School" }, "geometry": { "type": "Point", "coordinates": [ -84.3753, 33.7818 ] } },
{ "type": "Feature", "properties": { "osmid": 358785266, "name": "Imhotep Academy" }, "geometry": { "type": "Point", "coordinates": [ -84.4983693, 33.7721501 ] } },
{ "type": "Feature", "properties": { "osmid": 358785536, "name": "Holy Spirit Preparatory School" }, "geometry": { "type": "Point", "coordinates": [ -84.4118, 33.8774 ] } },
{ "type": "Feature", "properties": { "osmid": 358785672, "name": "Light of the World Christian School" }, "geometry": { "type": "Point", "coordinates": [ -84.349, 33.7393 ] } },
{ "type": "Feature", "properties": { "osmid": 358785881, "name": "Believers Bible Christian Academy" }, "geometry": { "type": "Point", "coordinates": [ -84.5067, 33.6909 ] } },
{ "type": "Feature", "properties": { "osmid": 358785894, "name": "Southwest Atlanta Christian Academy" }, "geometry": { "type": "Point", "coordinates": [ -84.5157, 33.6918 ] } },
{ "type": "Feature", "properties": { "osmid": 358785898, "name": "Southwest Atlanta Christian Academy_358785898" }, "geometry": { "type": "Point", "coordinates": [ -84.5153, 33.692 ] } },
{ "type": "Feature", "properties": { "osmid": 1573471359, "name": "Midtown High School" }, "geometry": { "type": "Point", "coordinates": [ -84.3712151, 33.7806741 ] } },
{ "type": "Feature", "properties": { "osmid": 1654775761, "name": "Paideia School" }, "geometry": { "type": "Point", "coordinates": [ -84.3403084, 33.7735663 ] } },
{ "type": "Feature", "properties": { "osmid": 2771291637, "name": "Georgia State Police Academy" }, "geometry": { "type": "Point", "coordinates": [ -84.356366, 33.7245946 ] } },
{ "type": "Feature", "properties": { "osmid": 4124644889, "name": "General Assembly" }, "geometry": { "type": "Point", "coordinates": [ -84.3667406, 33.7724394 ] } },
{ "type": "Feature", "properties": { "osmid": 4262434589, "name": "Inman Park Cooperative Preschool" }, "geometry": { "type": "Point", "coordinates": [ -84.3627434, 33.7551237 ] } },
{ "type": "Feature", "properties": { "osmid": 5353863723, "name": "Urban Explorers Prescool" }, "geometry": { "type": "Point", "coordinates": [ -84.3794565, 33.7369954 ] } },
{ "type": "Feature", "properties": { "osmid": 7603259568, "name": "7603259568" }, "geometry": { "type": "Point", "coordinates": [ -84.3860006, 33.827911 ] } },
{ "type": "Feature", "properties": { "osmid": 8241708975, "name": "Christo Rey Atlanta Jesuit High School" }, "geometry": { "type": "Point", "coordinates": [ -84.3829547, 33.7607893 ] } }
]
}
