{
"type": "FeatureCollection",
"crs": { "type": "name", "properties": { "name": "urn:ogc:def:crs:OGC:1.3:CRS84" } },
"features": [
{ "type": "Feature", "properties": { "name": "RC_Peachtree Heights East" }, "geometry": { "type": "Point", "coordinates": [ -84.382948344015361, 33.825739280473911 ] } },
{ "type": "Feature", "properties": { "name": "RC_Mt. Gilead Woods" }, "geometry": { "type": "Point", "coordinates": [ -84.503678155900403, 33.699953286051127 ] } },
{ "type": "Feature", "properties": { "name": "RC_Oakcliff" }, "geometry": { "type": "Point", "coordinates": [ -84.498060785863117, 33.761687754859061 ] } },
{ "type": "Feature", "properties": { "name": "RC_Just Us" }, "geometry": { "type": "Point", "coordinates": [ -84.424864703982919, 33.752582020933495 ] } },
{ "type": "Feature", "properties": { "name": "RC_Bush Mountain" }, "geometry": { "type": "Point", "coordinates": [ -84.432044533014846, 33.727509130546714 ] } },
{ "type": "Feature", "properties": { "name": "RC_Briar Glen" }, "geometry": { "type": "Point", "coordinates": [ -84.503299211809505, 33.696949148245203 ] } },
{ "type": "Feature", "properties": { "name": "RC_Fairburn" }, "geometry": { "type": "Point", "coordinates": [ -84.52342153689348, 33.692494954355453 ] } },
{ "type": "Feature", "properties": { "name": "RC_Ben Hill Terrace" }, "geometry": { "type": "Point", "coordinates": [ -84.521768161576645, 33.700001441433116 ] } },
{ "type": "Feature", "properties": { "name": "RC_Brandon" }, "geometry": { "type": "Point", "coordinates": [ -84.417911553143838, 33.828807645731594 ] } },
{ "type": "Feature", "properties": { "name": "RC_Poncey-Highland" }, "geometry": { "type": "Point", "coordinates": [ -84.35692209529671, 33.770341337560126 ] } },
{ "type": "Feature", "properties": { "name": "RC_Inman Park" }, "geometry": { "type": "Point", "coordinates": [ -84.356472958952111, 33.7607276516718 ] } },
{ "type": "Feature", "properties": { "name": "RC_Candler Park" }, "geometry": { "type": "Point", "coordinates": [ -84.341402382381744, 33.76655992097399 ] } },
{ "type": "Feature", "properties": { "name": "RC_Edgewood" }, "geometry": { "type": "Point", "coordinates": [ -84.341413381101006, 33.754891920897059 ] } },
{ "type": "Feature", "properties": { "name": "RC_Custer/McDonough/Guice" }, "geometry": { "type": "Point", "coordinates": [ -84.354842670314369, 33.712934759805883 ] } },
{ "type": "Feature", "properties": { "name": "RC_Thomasville Heights" }, "geometry": { "type": "Point", "coordinates": [ -84.356950676889397, 33.702559967918774 ] } },
{ "type": "Feature", "properties": { "name": "RC_Norwood Manor" }, "geometry": { "type": "Point", "coordinates": [ -84.36319179711073, 33.697588465523687 ] } },
{ "type": "Feature", "properties": { "name": "RC_South River Gardens" }, "geometry": { "type": "Point", "coordinates": [ -84.360291651036263, 33.665248518107191 ] } },
{ "type": "Feature", "properties": { "name": "RC_Blair Villa/Poole Creek" }, "geometry": { "type": "Point", "coordinates": [ -84.381483081339496, 33.65449473243968 ] } },
{ "type": "Feature", "properties": { "name": "RC_Rosedale Heights" }, "geometry": { "type": "Point", "coordinates": [ -84.377252701995928, 33.679357487314498 ] } },
{ "type": "Feature", "properties": { "name": "RC_Lakewood" }, "geometry": { "type": "Point", "coordinates": [ -84.373687237886656, 33.69329372953824 ] } },
{ "type": "Feature", "properties": { "name": "RC_Ridgedale Park" }, "geometry": { "type": "Point", "coordinates": [ -84.352866303020463, 33.852728187071513 ] } },
{ "type": "Feature", "properties": { "name": "RC_Lindbergh/Morosgo" }, "geometry": { "type": "Point", "coordinates": [ -84.365852136293412, 33.823577863965873 ] } },
{ "type": "Feature", "properties": { "name": "RC_South Tuxedo Park" }, "geometry": { "type": "Point", "coordinates": [ -84.385934129865191, 33.845788034690159 ] } },
{ "type": "Feature", "properties": { "name": "RC_Buckhead Village" }, "geometry": { "type": "Point", "coordinates": [ -84.374175965111661, 33.839270871177078 ] } },
{ "type": "Feature", "properties": { "name": "RC_Lindridge/Martin Manor" }, "geometry": { "type": "Point", "coordinates": [ -84.355402258938526, 33.816936065952021 ] } },
{ "type": "Feature", "properties": { "name": "RC_Atkins Park" }, "geometry": { "type": "Point", "coordinates": [ -84.350450096534345, 33.775648678483861 ] } },
{ "type": "Feature", "properties": { "name": "RC_Piedmont Heights" }, "geometry": { "type": "Point", "coordinates": [ -84.371168067041353, 33.805235460752165 ] } },
{ "type": "Feature", "properties": { "name": "RC_Whitewater Creek" }, "geometry": { "type": "Point", "coordinates": [ -84.440224239568749, 33.873239345161316 ] } },
{ "type": "Feature", "properties": { "name": "RC_West Paces Ferry/Northside" }, "geometry": { "type": "Point", "coordinates": [ -84.418528555041107, 33.846144436098747 ] } },
{ "type": "Feature", "properties": { "name": "RC_Pleasant Hill" }, "geometry": { "type": "Point", "coordinates": [ -84.438592014946892, 33.857299791534892 ] } },
{ "type": "Feature", "properties": { "name": "RC_Ridgewood Heights" }, "geometry": { "type": "Point", "coordinates": [ -84.446166020647894, 33.825951096260006 ] } },
{ "type": "Feature", "properties": { "name": "RC_Fernleaf" }, "geometry": { "type": "Point", "coordinates": [ -84.440387987732308, 33.819953772063343 ] } },
{ "type": "Feature", "properties": { "name": "RC_Westminster/Milmar" }, "geometry": { "type": "Point", "coordinates": [ -84.425647595064319, 33.836637552694413 ] } },
{ "type": "Feature", "properties": { "name": "RC_Arden/Habersham" }, "geometry": { "type": "Point", "coordinates": [ -84.400253230854261, 33.838269130419263 ] } },
{ "type": "Feature", "properties": { "name": "RC_Woodfield" }, "geometry": { "type": "Point", "coordinates": [ -84.410024420878543, 33.822132214358362 ] } },
{ "type": "Feature", "properties": { "name": "RC_Springlake" }, "geometry": { "type": "Point", "coordinates": [ -84.411386775301793, 33.813936757939196 ] } },
{ "type": "Feature", "properties": { "name": "RC_Channing Valley" }, "geometry": { "type": "Point", "coordinates": [ -84.410129235727254, 33.806725378329595 ] } },
{ "type": "Feature", "properties": { "name": "RC_Collier Hills" }, "geometry": { "type": "Point", "coordinates": [ -84.404915447283557, 33.807698453627424 ] } },
{ "type": "Feature", "properties": { "name": "RC_Colonial Homes" }, "geometry": { "type": "Point", "coordinates": [ -84.395763443342673, 33.814074597177338 ] } },
{ "type": "Feature", "properties": { "name": "RC_Cabbagetown" }, "geometry": { "type": "Point", "coordinates": [ -84.365710476823807, 33.74994515449221 ] } },
{ "type": "Feature", "properties": { "name": "RC_Reynoldstown" }, "geometry": { "type": "Point", "coordinates": [ -84.355340053426701, 33.750334708984809 ] } },
{ "type": "Feature", "properties": { "name": "RC_The Villages at East Lake" }, "geometry": { "type": "Point", "coordinates": [ -84.315095557904215, 33.743422513295592 ] } },
{ "type": "Feature", "properties": { "name": "RC_Ormewood Park" }, "geometry": { "type": "Point", "coordinates": [ -84.354545774490859, 33.734480073905978 ] } },
{ "type": "Feature", "properties": { "name": "RC_Woodland Hills" }, "geometry": { "type": "Point", "coordinates": [ -84.352170074887354, 33.721286279198459 ] } },
{ "type": "Feature", "properties": { "name": "RC_Benteen Park" }, "geometry": { "type": "Point", "coordinates": [ -84.364140227238408, 33.715872986006531 ] } },
{ "type": "Feature", "properties": { "name": "RC_Boulevard Heights" }, "geometry": { "type": "Point", "coordinates": [ -84.363844334832194, 33.723977753546393 ] } },
{ "type": "Feature", "properties": { "name": "RC_Rebel Valley Forest" }, "geometry": { "type": "Point", "coordinates": [ -84.356900349579618, 33.686167752690231 ] } },
{ "type": "Feature", "properties": { "name": "RC_Leila Valley" }, "geometry": { "type": "Point", "coordinates": [ -84.357924366884149, 33.688146024258629 ] } },
{ "type": "Feature", "properties": { "name": "RC_Chosewood Park" }, "geometry": { "type": "Point", "coordinates": [ -84.373132425860092, 33.71676768032512 ] } },
{ "type": "Feature", "properties": { "name": "RC_Cascade Avenue/Road" }, "geometry": { "type": "Point", "coordinates": [ -84.449564106224074, 33.727449212415664 ] } },
{ "type": "Feature", "properties": { "name": "RC_Oakland City" }, "geometry": { "type": "Point", "coordinates": [ -84.426746807754071, 33.725495683651708 ] } },
{ "type": "Feature", "properties": { "name": "RC_Campbellton Road" }, "geometry": { "type": "Point", "coordinates": [ -84.464567644570153, 33.701479898064143 ] } },
{ "type": "Feature", "properties": { "name": "RC_Southwest" }, "geometry": { "type": "Point", "coordinates": [ -84.487922742507351, 33.704591702205171 ] } },
{ "type": "Feature", "properties": { "name": "RC_Adams Park" }, "geometry": { "type": "Point", "coordinates": [ -84.46168156408595, 33.713948007516237 ] } },
{ "type": "Feature", "properties": { "name": "RC_Mellwood" }, "geometry": { "type": "Point", "coordinates": [ -84.507699829145992, 33.686768366488096 ] } },
{ "type": "Feature", "properties": { "name": "RC_Brentwood" }, "geometry": { "type": "Point", "coordinates": [ -84.505009679963337, 33.674273942296189 ] } },
{ "type": "Feature", "properties": { "name": "RC_Butner/Tell" }, "geometry": { "type": "Point", "coordinates": [ -84.531030528221223, 33.683998571001119 ] } },
{ "type": "Feature", "properties": { "name": "RC_Elmco Estates" }, "geometry": { "type": "Point", "coordinates": [ -84.531172349840531, 33.69184652188504 ] } },
{ "type": "Feature", "properties": { "name": "RC_Sandlewood Estates" }, "geometry": { "type": "Point", "coordinates": [ -84.542616253321228, 33.702665709034001 ] } },
{ "type": "Feature", "properties": { "name": "RC_Ashley Courts" }, "geometry": { "type": "Point", "coordinates": [ -84.523885299256463, 33.718513165741918 ] } },
{ "type": "Feature", "properties": { "name": "RC_Ben Hill" }, "geometry": { "type": "Point", "coordinates": [ -84.522306059329964, 33.670144324824491 ] } },
{ "type": "Feature", "properties": { "name": "RC_Berkeley Park" }, "geometry": { "type": "Point", "coordinates": [ -84.411894701413715, 33.796780333460447 ] } },
{ "type": "Feature", "properties": { "name": "RC_Underwood Hills" }, "geometry": { "type": "Point", "coordinates": [ -84.426303460540211, 33.807439604657091 ] } },
{ "type": "Feature", "properties": { "name": "RC_Riverside" }, "geometry": { "type": "Point", "coordinates": [ -84.472437891650472, 33.813151896424941 ] } },
{ "type": "Feature", "properties": { "name": "RC_Bolton" }, "geometry": { "type": "Point", "coordinates": [ -84.456727437188661, 33.816604408532243 ] } },
{ "type": "Feature", "properties": { "name": "RC_Blandtown" }, "geometry": { "type": "Point", "coordinates": [ -84.422311835054742, 33.792112604669889 ] } },
{ "type": "Feature", "properties": { "name": "RC_Lincoln Homes" }, "geometry": { "type": "Point", "coordinates": [ -84.478466407345678, 33.80076916773745 ] } },
{ "type": "Feature", "properties": { "name": "RC_Scotts Crossing" }, "geometry": { "type": "Point", "coordinates": [ -84.468397471499969, 33.802561398827507 ] } },
{ "type": "Feature", "properties": { "name": "RC_West Highlands" }, "geometry": { "type": "Point", "coordinates": [ -84.453847683704808, 33.793727565350416 ] } },
{ "type": "Feature", "properties": { "name": "RC_Rockdale" }, "geometry": { "type": "Point", "coordinates": [ -84.441667351844274, 33.785699820921316 ] } },
{ "type": "Feature", "properties": { "name": "RC_Monroe Heights" }, "geometry": { "type": "Point", "coordinates": [ -84.481225916048288, 33.793876555059533 ] } },
{ "type": "Feature", "properties": { "name": "RC_Brookview Heights" }, "geometry": { "type": "Point", "coordinates": [ -84.483413169100658, 33.785870595999405 ] } },
{ "type": "Feature", "properties": { "name": "RC_Center Hill" }, "geometry": { "type": "Point", "coordinates": [ -84.465049210953111, 33.770849631321092 ] } },
{ "type": "Feature", "properties": { "name": "RC_Bankhead Courts" }, "geometry": { "type": "Point", "coordinates": [ -84.502159885356434, 33.793243755028627 ] } },
{ "type": "Feature", "properties": { "name": "RC_Wisteria Gardens" }, "geometry": { "type": "Point", "coordinates": [ -84.51101470384377, 33.756254056125357 ] } },
{ "type": "Feature", "properties": { "name": "RC_Baker Hills" }, "geometry": { "type": "Point", "coordinates": [ -84.519749269094333, 33.758981538140368 ] } },
{ "type": "Feature", "properties": { "name": "RC_Wilson Mill Meadows" }, "geometry": { "type": "Point", "coordinates": [ -84.521245015648176, 33.750822458737595 ] } },
{ "type": "Feature", "properties": { "name": "RC_Orchard Knob" }, "geometry": { "type": "Point", "coordinates": [ -84.376986524661021, 33.671319100892973 ] } },
{ "type": "Feature", "properties": { "name": "RC_Lenox" }, "geometry": { "type": "Point", "coordinates": [ -84.361204058088902, 33.847575573034632 ] } },
{ "type": "Feature", "properties": { "name": "RC_Peachtree Park" }, "geometry": { "type": "Point", "coordinates": [ -84.365079482854185, 33.838335902670373 ] } },
{ "type": "Feature", "properties": { "name": "RC_Buckhead Forest" }, "geometry": { "type": "Point", "coordinates": [ -84.377705264095411, 33.846459704865175 ] } },
{ "type": "Feature", "properties": { "name": "RC_Peachtree Heights West" }, "geometry": { "type": "Point", "coordinates": [ -84.389745201182834, 33.834512817940428 ] } },
{ "type": "Feature", "properties": { "name": "RC_Garden Hills" }, "geometry": { "type": "Point", "coordinates": [ -84.375733649935924, 33.830600240926209 ] } },
{ "type": "Feature", "properties": { "name": "RC_Peachtree Hills" }, "geometry": { "type": "Point", "coordinates": [ -84.381732084266005, 33.81818227804925 ] } },
{ "type": "Feature", "properties": { "name": "RC_Randall Mill" }, "geometry": { "type": "Point", "coordinates": [ -84.424513305891693, 33.85521009225603 ] } },
{ "type": "Feature", "properties": { "name": "RC_Kingswood" }, "geometry": { "type": "Point", "coordinates": [ -84.412479356260846, 33.854981806256987 ] } },
{ "type": "Feature", "properties": { "name": "RC_Tuxedo Park" }, "geometry": { "type": "Point", "coordinates": [ -84.396082107162101, 33.853281485744709 ] } },
{ "type": "Feature", "properties": { "name": "RC_Margaret Mitchell" }, "geometry": { "type": "Point", "coordinates": [ -84.43588086517201, 33.83530823486597 ] } },
{ "type": "Feature", "properties": { "name": "RC_Westover Plantation" }, "geometry": { "type": "Point", "coordinates": [ -84.440552065122361, 33.823499960182836 ] } },
{ "type": "Feature", "properties": { "name": "RC_Cross Creek" }, "geometry": { "type": "Point", "coordinates": [ -84.425885755933905, 33.81868588642655 ] } },
{ "type": "Feature", "properties": { "name": "RC_Castlewood" }, "geometry": { "type": "Point", "coordinates": [ -84.412357079776584, 33.83445791166146 ] } },
{ "type": "Feature", "properties": { "name": "RC_Argonne Forest" }, "geometry": { "type": "Point", "coordinates": [ -84.40370194520132, 33.841519538304922 ] } },
{ "type": "Feature", "properties": { "name": "RC_Wyngate" }, "geometry": { "type": "Point", "coordinates": [ -84.400768885406279, 33.832306306842192 ] } },
{ "type": "Feature", "properties": { "name": "RC_Peachtree Battle Alliance" }, "geometry": { "type": "Point", "coordinates": [ -84.399649987705061, 33.823249201571485 ] } },
{ "type": "Feature", "properties": { "name": "RC_Memorial Park" }, "geometry": { "type": "Point", "coordinates": [ -84.41311086750629, 33.820380153350193 ] } },
{ "type": "Feature", "properties": { "name": "RC_Wildwood (NPU-C)" }, "geometry": { "type": "Point", "coordinates": [ -84.418064449930313, 33.815325647262824 ] } },
{ "type": "Feature", "properties": { "name": "RC_Collier Hills North" }, "geometry": { "type": "Point", "coordinates": [ -84.399789656708379, 33.810266961490768 ] } },
{ "type": "Feature", "properties": { "name": "RC_Beecher Hills" }, "geometry": { "type": "Point", "coordinates": [ -84.46169173569983, 33.732945652812397 ] } },
{ "type": "Feature", "properties": { "name": "RC_Westwood Terrace" }, "geometry": { "type": "Point", "coordinates": [ -84.451932518025515, 33.736560482014063 ] } },
{ "type": "Feature", "properties": { "name": "RC_Harris Chiles" }, "geometry": { "type": "Point", "coordinates": [ -84.418999171092153, 33.743783383256449 ] } },
{ "type": "Feature", "properties": { "name": "RC_The Villages at Castleberry Hill" }, "geometry": { "type": "Point", "coordinates": [ -84.408373973661483, 33.747131818092875 ] } },
{ "type": "Feature", "properties": { "name": "RC_Mozley Park" }, "geometry": { "type": "Point", "coordinates": [ -84.435446150643202, 33.750924879723748 ] } },
{ "type": "Feature", "properties": { "name": "RC_Washington Park" }, "geometry": { "type": "Point", "coordinates": [ -84.42122422418457, 33.75890698418565 ] } },
{ "type": "Feature", "properties": { "name": "RC_Knight Park/Howell Station" }, "geometry": { "type": "Point", "coordinates": [ -84.424254630564533, 33.781538861982035 ] } },
{ "type": "Feature", "properties": { "name": "RC_Vine City" }, "geometry": { "type": "Point", "coordinates": [ -84.410138523088918, 33.759066304307588 ] } },
{ "type": "Feature", "properties": { "name": "RC_Pittsburgh" }, "geometry": { "type": "Point", "coordinates": [ -84.402087595887181, 33.727877414258288 ] } },
{ "type": "Feature", "properties": { "name": "RC_Peoplestown" }, "geometry": { "type": "Point", "coordinates": [ -84.38663498477159, 33.726873937920644 ] } },
{ "type": "Feature", "properties": { "name": "RC_Summerhill" }, "geometry": { "type": "Point", "coordinates": [ -84.386285810297323, 33.737502548320229 ] } },
{ "type": "Feature", "properties": { "name": "RC_Castleberry Hill" }, "geometry": { "type": "Point", "coordinates": [ -84.401045823800757, 33.748886257059567 ] } },
{ "type": "Feature", "properties": { "name": "RC_Sweet Auburn" }, "geometry": { "type": "Point", "coordinates": [ -84.376008460746306, 33.754359571724741 ] } },
{ "type": "Feature", "properties": { "name": "RC_Marietta Street Artery" }, "geometry": { "type": "Point", "coordinates": [ -84.40827110537046, 33.779491750569477 ] } },
{ "type": "Feature", "properties": { "name": "RC_Sherwood Forest" }, "geometry": { "type": "Point", "coordinates": [ -84.381954435104603, 33.800987783744667 ] } },
{ "type": "Feature", "properties": { "name": "RC_Loring Heights" }, "geometry": { "type": "Point", "coordinates": [ -84.40310056399106, 33.796561125040022 ] } },
{ "type": "Feature", "properties": { "name": "RC_Brookwood Hills" }, "geometry": { "type": "Point", "coordinates": [ -84.388777975184937, 33.80621632853412 ] } },
{ "type": "Feature", "properties": { "name": "RC_Old Gordon" }, "geometry": { "type": "Point", "coordinates": [ -84.512473932257706, 33.768063420996221 ] } },
{ "type": "Feature", "properties": { "name": "RC_Mays" }, "geometry": { "type": "Point", "coordinates": [ -84.502548493713377, 33.741717444100537 ] } },
{ "type": "Feature", "properties": { "name": "RC_Harvel Homes Community" }, "geometry": { "type": "Point", "coordinates": [ -84.467513851202952, 33.759345331499496 ] } },
{ "type": "Feature", "properties": { "name": "RC_Penelope Neighbors" }, "geometry": { "type": "Point", "coordinates": [ -84.451301274526173, 33.753109273134399 ] } },
{ "type": "Feature", "properties": { "name": "RC_Dixie Hills" }, "geometry": { "type": "Point", "coordinates": [ -84.456038700088499, 33.75842899798122 ] } },
{ "type": "Feature", "properties": { "name": "RC_Grove Park" }, "geometry": { "type": "Point", "coordinates": [ -84.444087147666409, 33.774017575461649 ] } },
{ "type": "Feature", "properties": { "name": "RC_Fairburn Heights" }, "geometry": { "type": "Point", "coordinates": [ -84.501310688342016, 33.770935586102446 ] } },
{ "type": "Feature", "properties": { "name": "RC_Adamsville" }, "geometry": { "type": "Point", "coordinates": [ -84.50310232033371, 33.758777508162041 ] } },
{ "type": "Feature", "properties": { "name": "RC_Fairburn Road/Wisteria Lane" }, "geometry": { "type": "Point", "coordinates": [ -84.513107829794023, 33.750791690580783 ] } },
{ "type": "Feature", "properties": { "name": "RC_Ridgecrest Forest" }, "geometry": { "type": "Point", "coordinates": [ -84.525685787824131, 33.743390802248356 ] } },
{ "type": "Feature", "properties": { "name": "RC_Wildwood (NPU-H)" }, "geometry": { "type": "Point", "coordinates": [ -84.518202166110726, 33.7437822904105 ] } },
{ "type": "Feature", "properties": { "name": "RC_Boulder Park" }, "geometry": { "type": "Point", "coordinates": [ -84.529775949783726, 33.743778929187314 ] } },
{ "type": "Feature", "properties": { "name": "RC_Westhaven" }, "geometry": { "type": "Point", "coordinates": [ -84.475886406136439, 33.756709643628795 ] } },
{ "type": "Feature", "properties": { "name": "RC_Harland Terrace" }, "geometry": { "type": "Point", "coordinates": [ -84.477934631213017, 33.751500896346904 ] } },
{ "type": "Feature", "properties": { "name": "RC_Peyton Forest" }, "geometry": { "type": "Point", "coordinates": [ -84.479087877369608, 33.743636960534545 ] } },
{ "type": "Feature", "properties": { "name": "RC_East Ardley Road" }, "geometry": { "type": "Point", "coordinates": [ -84.493060368597824, 33.729152394745554 ] } },
{ "type": "Feature", "properties": { "name": "RC_West Manor" }, "geometry": { "type": "Point", "coordinates": [ -84.494688444318641, 33.736898540326564 ] } },
{ "type": "Feature", "properties": { "name": "RC_Audobon Forest West" }, "geometry": { "type": "Point", "coordinates": [ -84.480967116066992, 33.725999897856568 ] } },
{ "type": "Feature", "properties": { "name": "RC_Audobon Forest" }, "geometry": { "type": "Point", "coordinates": [ -84.471307069505528, 33.731695628673393 ] } },
{ "type": "Feature", "properties": { "name": "RC_Cascade Heights" }, "geometry": { "type": "Point", "coordinates": [ -84.481655379147, 33.719708676717453 ] } },
{ "type": "Feature", "properties": { "name": "RC_Westview" }, "geometry": { "type": "Point", "coordinates": [ -84.439688288665977, 33.740306054668906 ] } },
{ "type": "Feature", "properties": { "name": "RC_West End" }, "geometry": { "type": "Point", "coordinates": [ -84.423872930229152, 33.737852207423487 ] } },
{ "type": "Feature", "properties": { "name": "RC_Ashview Heights" }, "geometry": { "type": "Point", "coordinates": [ -84.421881033135847, 33.750123734366639 ] } },
{ "type": "Feature", "properties": { "name": "RC_Atlanta University Center" }, "geometry": { "type": "Point", "coordinates": [ -84.411256111510227, 33.749477228025107 ] } },
{ "type": "Feature", "properties": { "name": "RC_Hunter Hills" }, "geometry": { "type": "Point", "coordinates": [ -84.431229866020772, 33.758730644083641 ] } },
{ "type": "Feature", "properties": { "name": "RC_Historic Westin Heights/Bankhead" }, "geometry": { "type": "Point", "coordinates": [ -84.424523902943861, 33.769013777153134 ] } },
{ "type": "Feature", "properties": { "name": "RC_English Avenue" }, "geometry": { "type": "Point", "coordinates": [ -84.410994857286028, 33.770709522504312 ] } },
{ "type": "Feature", "properties": { "name": "RC_Adair Park" }, "geometry": { "type": "Point", "coordinates": [ -84.410837172191606, 33.731171603762967 ] } },
{ "type": "Feature", "properties": { "name": "RC_Mechanicsville" }, "geometry": { "type": "Point", "coordinates": [ -84.397682183671776, 33.738053930675797 ] } },
{ "type": "Feature", "properties": { "name": "RC_Capitol Gateway" }, "geometry": { "type": "Point", "coordinates": [ -84.384506451051635, 33.74558580234342 ] } },
{ "type": "Feature", "properties": { "name": "RC_Grant Park" }, "geometry": { "type": "Point", "coordinates": [ -84.370626554437052, 33.737489365124901 ] } },
{ "type": "Feature", "properties": { "name": "RC_Hammond Park" }, "geometry": { "type": "Point", "coordinates": [ -84.407380070828864, 33.676960284429605 ] } },
{ "type": "Feature", "properties": { "name": "RC_Capitol View" }, "geometry": { "type": "Point", "coordinates": [ -84.414634644114528, 33.717060881634985 ] } },
{ "type": "Feature", "properties": { "name": "RC_High Point" }, "geometry": { "type": "Point", "coordinates": [ -84.395888872395659, 33.71660275029295 ] } },
{ "type": "Feature", "properties": { "name": "RC_Joyland" }, "geometry": { "type": "Point", "coordinates": [ -84.397342058749544, 33.711798223369286 ] } },
{ "type": "Feature", "properties": { "name": "RC_Betmar LaVilla" }, "geometry": { "type": "Point", "coordinates": [ -84.398094112328977, 33.70667069256055 ] } },
{ "type": "Feature", "properties": { "name": "RC_The Villages at Carver" }, "geometry": { "type": "Point", "coordinates": [ -84.391034101857088, 33.712785713391547 ] } },
{ "type": "Feature", "properties": { "name": "RC_Fort McPherson" }, "geometry": { "type": "Point", "coordinates": [ -84.434556204019216, 33.707104432206634 ] } },
{ "type": "Feature", "properties": { "name": "RC_Venetian Hills" }, "geometry": { "type": "Point", "coordinates": [ -84.443558220938428, 33.716634585882126 ] } },
{ "type": "Feature", "properties": { "name": "RC_Pomona Park" }, "geometry": { "type": "Point", "coordinates": [ -84.450941281808198, 33.705290891415899 ] } },
{ "type": "Feature", "properties": { "name": "RC_Fort Valley" }, "geometry": { "type": "Point", "coordinates": [ -84.451027328590385, 33.700070389907914 ] } },
{ "type": "Feature", "properties": { "name": "RC_Greenbriar" }, "geometry": { "type": "Point", "coordinates": [ -84.491509745321409, 33.682722471964446 ] } },
{ "type": "Feature", "properties": { "name": "RC_Laurens Valley" }, "geometry": { "type": "Point", "coordinates": [ -84.478662702865151, 33.70975681509227 ] } },
{ "type": "Feature", "properties": { "name": "RC_Heritage Valley" }, "geometry": { "type": "Point", "coordinates": [ -84.502030498137799, 33.705978421735473 ] } },
{ "type": "Feature", "properties": { "name": "RC_Ben Hill Acres" }, "geometry": { "type": "Point", "coordinates": [ -84.508427839439676, 33.694085116910209 ] } },
{ "type": "Feature", "properties": { "name": "RC_Rue Royal" }, "geometry": { "type": "Point", "coordinates": [ -84.505315404414347, 33.685787849875403 ] } },
{ "type": "Feature", "properties": { "name": "RC_Ben Hill Pines" }, "geometry": { "type": "Point", "coordinates": [ -84.508243983527805, 33.683476328178514 ] } },
{ "type": "Feature", "properties": { "name": "RC_Ben Hill Forest" }, "geometry": { "type": "Point", "coordinates": [ -84.502197945892817, 33.677401957699963 ] } },
{ "type": "Feature", "properties": { "name": "RC_Deerwood" }, "geometry": { "type": "Point", "coordinates": [ -84.511316649227595, 33.676458651878221 ] } },
{ "type": "Feature", "properties": { "name": "RC_Wildwood Forest" }, "geometry": { "type": "Point", "coordinates": [ -84.538929276896283, 33.683089754401706 ] } },
{ "type": "Feature", "properties": { "name": "RC_Fairway Acres" }, "geometry": { "type": "Point", "coordinates": [ -84.539257418851491, 33.685697059720141 ] } },
{ "type": "Feature", "properties": { "name": "RC_Greenbriar Village" }, "geometry": { "type": "Point", "coordinates": [ -84.540417330407067, 33.704361125984526 ] } },
{ "type": "Feature", "properties": { "name": "RC_Niskey Lake" }, "geometry": { "type": "Point", "coordinates": [ -84.53135559550924, 33.715621445571799 ] } },
{ "type": "Feature", "properties": { "name": "RC_Kings Forest" }, "geometry": { "type": "Point", "coordinates": [ -84.512917325012822, 33.700794125945087 ] } },
{ "type": "Feature", "properties": { "name": "RC_Whittier Mill Village" }, "geometry": { "type": "Point", "coordinates": [ -84.482352004746431, 33.811635671850894 ] } },
{ "type": "Feature", "properties": { "name": "RC_Hills Park" }, "geometry": { "type": "Point", "coordinates": [ -84.440864417857455, 33.801188822970985 ] } },
{ "type": "Feature", "properties": { "name": "RC_Bolton Hills" }, "geometry": { "type": "Point", "coordinates": [ -84.48429933408022, 33.801377177047243 ] } },
{ "type": "Feature", "properties": { "name": "RC_Carver Hills" }, "geometry": { "type": "Point", "coordinates": [ -84.461291890026985, 33.799930889453002 ] } },
{ "type": "Feature", "properties": { "name": "RC_Almond Park" }, "geometry": { "type": "Point", "coordinates": [ -84.462246506021117, 33.786543974456777 ] } },
{ "type": "Feature", "properties": { "name": "RC_Browns Mill Park" }, "geometry": { "type": "Point", "coordinates": [ -84.382007268406511, 33.685243988844448 ] } },
{ "type": "Feature", "properties": { "name": "RC_Swallow Circle/Baywood" }, "geometry": { "type": "Point", "coordinates": [ -84.38523052334196, 33.692907491682554 ] } },
{ "type": "Feature", "properties": { "name": "RC_Polar Rock" }, "geometry": { "type": "Point", "coordinates": [ -84.396897829233666, 33.693977781396221 ] } },
{ "type": "Feature", "properties": { "name": "RC_Sylvan Hills" }, "geometry": { "type": "Point", "coordinates": [ -84.415932336408176, 33.705742742322855 ] } },
{ "type": "Feature", "properties": { "name": "RC_Capitol View Manor" }, "geometry": { "type": "Point", "coordinates": [ -84.402998700618497, 33.717434068499323 ] } },
{ "type": "Feature", "properties": { "name": "RC_Amal Heights" }, "geometry": { "type": "Point", "coordinates": [ -84.39871531296653, 33.708803540330919 ] } },
{ "type": "Feature", "properties": { "name": "RC_West Lake" }, "geometry": { "type": "Point", "coordinates": [ -84.441885843605064, 33.758952119710003 ] } },
{ "type": "Feature", "properties": { "name": "RC_Lakewood Heights" }, "geometry": { "type": "Point", "coordinates": [ -84.385504711662634, 33.703757601405357 ] } },
{ "type": "Feature", "properties": { "name": "RC_South Atlanta" }, "geometry": { "type": "Point", "coordinates": [ -84.385266032386696, 33.715311411650028 ] } },
{ "type": "Feature", "properties": { "name": "RC_Collier Heights" }, "geometry": { "type": "Point", "coordinates": [ -84.483740108299216, 33.771164014556867 ] } },
{ "type": "Feature", "properties": { "name": "RC_Chalet Woods" }, "geometry": { "type": "Point", "coordinates": [ -84.472905175868789, 33.746269480154744 ] } },
{ "type": "Feature", "properties": { "name": "RC_Florida Heights" }, "geometry": { "type": "Point", "coordinates": [ -84.463538057659534, 33.748848242582142 ] } },
{ "type": "Feature", "properties": { "name": "RC_Green Acres Valley" }, "geometry": { "type": "Point", "coordinates": [ -84.499450563672028, 33.729027111821424 ] } },
{ "type": "Feature", "properties": { "name": "RC_Green Forest Acres" }, "geometry": { "type": "Point", "coordinates": [ -84.495415817552782, 33.732456057287649 ] } },
{ "type": "Feature", "properties": { "name": "RC_Magnum Manor" }, "geometry": { "type": "Point", "coordinates": [ -84.492080223500551, 33.724038939952266 ] } },
{ "type": "Feature", "properties": { "name": "RC_Old Fourth Ward" }, "geometry": { "type": "Point", "coordinates": [ -84.370883584940216, 33.764564301971809 ] } },
{ "type": "Feature", "properties": { "name": "RC_Downtown" }, "geometry": { "type": "Point", "coordinates": [ -84.391027437185031, 33.759255140935153 ] } },
{ "type": "Feature", "properties": { "name": "RC_Georgia Tech" }, "geometry": { "type": "Point", "coordinates": [ -84.398101373686572, 33.777112025291196 ] } },
{ "type": "Feature", "properties": { "name": "RC_Home Park" }, "geometry": { "type": "Point", "coordinates": [ -84.398766465576031, 33.785430841960597 ] } },
{ "type": "Feature", "properties": { "name": "RC_Midtown" }, "geometry": { "type": "Point", "coordinates": [ -84.382087491284139, 33.782479487079421 ] } },
{ "type": "Feature", "properties": { "name": "RC_Ansley Park" }, "geometry": { "type": "Point", "coordinates": [ -84.3785583368456, 33.795829343073628 ] } },
{ "type": "Feature", "properties": { "name": "RC_Brookwood" }, "geometry": { "type": "Point", "coordinates": [ -84.397018473645474, 33.801135562992137 ] } },
{ "type": "Feature", "properties": { "name": "RC_Ardmore" }, "geometry": { "type": "Point", "coordinates": [ -84.397253762840066, 33.80537913807715 ] } },
{ "type": "Feature", "properties": { "name": "RC_Hanover West" }, "geometry": { "type": "Point", "coordinates": [ -84.433452181091951, 33.822053676612505 ] } },
{ "type": "Feature", "properties": { "name": "RC_Fairburn Mays" }, "geometry": { "type": "Point", "coordinates": [ -84.510753872052604, 33.740499371676641 ] } },
{ "type": "Feature", "properties": { "name": "RC_Fairburn Tell" }, "geometry": { "type": "Point", "coordinates": [ -84.519658846427447, 33.68132064845971 ] } },
{ "type": "Feature", "properties": { "name": "RC_Princeton Lakes" }, "geometry": { "type": "Point", "coordinates": [ -84.511566409031431, 33.663332290610747 ] } },
{ "type": "Feature", "properties": { "name": "RC_Wesley Battle" }, "geometry": { "type": "Point", "coordinates": [ -84.430667982386353, 33.827003759879624 ] } },
{ "type": "Feature", "properties": { "name": "RC_Virginia Highland" }, "geometry": { "type": "Point", "coordinates": [ -84.358428364074044, 33.781454152603622 ] } },
{ "type": "Feature", "properties": { "name": "RC_North Buckhead" }, "geometry": { "type": "Point", "coordinates": [ -84.369664671446799, 33.863451650618877 ] } },
{ "type": "Feature", "properties": { "name": "RC_Lake Claire" }, "geometry": { "type": "Point", "coordinates": [ -84.326499814291637, 33.765318317087456 ] } },
{ "type": "Feature", "properties": { "name": "RC_Kirkwood" }, "geometry": { "type": "Point", "coordinates": [ -84.324109514220183, 33.753010209865892 ] } },
{ "type": "Feature", "properties": { "name": "RC_Mt. Paran/Northside" }, "geometry": { "type": "Point", "coordinates": [ -84.423050108243089, 33.867625254847262 ] } },
{ "type": "Feature", "properties": { "name": "RC_East Chastain Park" }, "geometry": { "type": "Point", "coordinates": [ -84.384021168695128, 33.867962216330007 ] } },
{ "type": "Feature", "properties": { "name": "RC_Pine Hills" }, "geometry": { "type": "Point", "coordinates": [ -84.353901400200272, 33.835996315608135 ] } },
{ "type": "Feature", "properties": { "name": "RC_Paces" }, "geometry": { "type": "Point", "coordinates": [ -84.448298211251256, 33.848987036991659 ] } },
{ "type": "Feature", "properties": { "name": "RC_Atlanta Industrial Park" }, "geometry": { "type": "Point", "coordinates": [ -84.496649182175034, 33.798861189252506 ] } },
{ "type": "Feature", "properties": { "name": "RC_Bankhead/Bolton" }, "geometry": { "type": "Point", "coordinates": [ -84.504839580691637, 33.787019586973727 ] } },
{ "type": "Feature", "properties": { "name": "RC_Carroll Heights" }, "geometry": { "type": "Point", "coordinates": [ -84.507886262722678, 33.776520847673382 ] } },
{ "type": "Feature", "properties": { "name": "RC_Brookhaven" }, "geometry": { "type": "Point", "coordinates": [ -84.35305705128313, 33.868073940668253 ] } },
{ "type": "Feature", "properties": { "name": "RC_Druid Hills" }, "geometry": { "type": "Point", "coordinates": [ -84.3391104222557, 33.775339380084169 ] } },
{ "type": "Feature", "properties": { "name": "RC_Chattahoochee" }, "geometry": { "type": "Point", "coordinates": [ -84.489087934092254, 33.806622917753458 ] } },
{ "type": "Feature", "properties": { "name": "RC_English Park" }, "geometry": { "type": "Point", "coordinates": [ -84.491245337107188, 33.792399114215165 ] } },
{ "type": "Feature", "properties": { "name": "RC_Bakers Ferry" }, "geometry": { "type": "Point", "coordinates": [ -84.529700728216099, 33.754935099702969 ] } },
{ "type": "Feature", "properties": { "name": "RC_Oakland" }, "geometry": { "type": "Point", "coordinates": [ -84.38001827224673, 33.748042255207018 ] } },
{ "type": "Feature", "properties": { "name": "RC_Atlantic Station" }, "geometry": { "type": "Point", "coordinates": [ -84.398092852743247, 33.791877637461617 ] } },
{ "type": "Feature", "properties": { "name": "RC_Carey Park" }, "geometry": { "type": "Point", "coordinates": [ -84.471636511587931, 33.786670336092577 ] } },
{ "type": "Feature", "properties": { "name": "RC_Regency Trace" }, "geometry": { "type": "Point", "coordinates": [ -84.54074391941846, 33.707642532298472 ] } },
{ "type": "Feature", "properties": { "name": "RC_Horseshoe Community" }, "geometry": { "type": "Point", "coordinates": [ -84.498695798770015, 33.720639445628194 ] } },
{ "type": "Feature", "properties": { "name": "RC_State Facility" }, "geometry": { "type": "Point", "coordinates": [ -84.357790226790982, 33.72243173038671 ] } },
{ "type": "Feature", "properties": { "name": "RC_Buckhead Heights" }, "geometry": { "type": "Point", "coordinates": [ -84.356895041006567, 33.848989841721561 ] } },
{ "type": "Feature", "properties": { "name": "RC_Arlington Estates" }, "geometry": { "type": "Point", "coordinates": [ -84.540648310822334, 33.691445443779905 ] } },
{ "type": "Feature", "properties": { "name": "RC_Midwest Cascade" }, "geometry": { "type": "Point", "coordinates": [ -84.537171260762108, 33.726798457426774 ] } },
{ "type": "Feature", "properties": { "name": "RC_Chastain Park" }, "geometry": { "type": "Point", "coordinates": [ -84.397901931747143, 33.871879298675132 ] } },
{ "type": "Feature", "properties": { "name": "RC_Mt. Paran Parkway" }, "geometry": { "type": "Point", "coordinates": [ -84.419443333353172, 33.875838419946952 ] } },
{ "type": "Feature", "properties": { "name": "RC_Old Fairburn Village" }, "geometry": { "type": "Point", "coordinates": [ -84.509060002464025, 33.712439943826205 ] } },
{ "type": "Feature", "properties": { "name": "RC_East Lake" }, "geometry": { "type": "Point", "coordinates": [ -84.300792262073969, 33.745760213300784 ] } },
{ "type": "Feature", "properties": { "name": "RC_Perkerson" }, "geometry": { "type": "Point", "coordinates": [ -84.408527959323791, 33.688192054405661 ] } },
{ "type": "Feature", "properties": { "name": "RC_Glenrose Heights" }, "geometry": { "type": "Point", "coordinates": [ -84.39024275822905, 33.669089968074822 ] } },
{ "type": "Feature", "properties": { "name": "RC_Edmund Park" }, "geometry": { "type": "Point", "coordinates": [ -84.341952521561794, 33.794680697737782 ] } },
{ "type": "Feature", "properties": { "name": "RC_Morningside/Lenox Park" }, "geometry": { "type": "Point", "coordinates": [ -84.356399582748793, 33.799334715443976 ] } },
{ "type": "Feature", "properties": { "name": "RC_East Atlanta" }, "geometry": { "type": "Point", "coordinates": [ -84.337052553882558, 33.73497369783157 ] } },
{ "type": "Feature", "properties": { "name": "RC_Huntington" }, "geometry": { "type": "Point", "coordinates": [ -84.527276580246223, 33.661303452373055 ] } },
{ "type": "Feature", "properties": { "name": "RC_Peyton Heights" }, "geometry": { "type": "Point", "coordinates": [ -84.479121776755434, 33.734492852617208 ] } }
]
}
